+ srun -p arch -N 1 --ntasks-per-node=1 --mem 256G -K python search_algo/main.py
srun: job 17235 queued and waiting for resources
srun: job 17235 has been allocated resources
+ srun -p arch -N 1 --ntasks-per-node=1 --mem 256G -K python search_algo/main.py
srun: job 17230 queued and waiting for resources
srun: job 17230 has been allocated resources
exp_config: fob=0,plan_type=automatic,hierarchy=None,transform_mode=greedy,plan_path=None
da_config: SP=(1,8),Sg=(256,256),S=(2048,2048),Nh=(1,1),bs=1,D=128,causal=True,hierarchy=None
Raw, ILP:
LP solve time: 300.0413239002228 s
objective=1.261e-04
Fused, ILP:
LP solve time: 7.5699663162231445 s
objective=1.286e-04
Raw, Flexflow:
end_time=1.779e-04
Fused, Flexflow:
end_time=1.779e-04
da_config: SP=(1,8),Sg=(512,512),S=(4096,4096),Nh=(1,1),bs=1,D=128,causal=True,hierarchy=None
Raw, ILP:
LP solve time: 4.303422927856445 s
objective=1.476e-04
Fused, ILP:
LP solve time: 1.2953145503997803 s
objective=1.602e-04
Raw, Flexflow:
end_time=2.178e-04
Fused, Flexflow:
end_time=2.394e-04
da_config: SP=(1,8),Sg=(1024,1024),S=(8192,8192),Nh=(1,1),bs=1,D=128,causal=True,hierarchy=None
Raw, ILP:
LP solve time: 19.371938467025757 s
objective=2.240e-04
Fused, ILP:
LP solve time: 0.670785665512085 s
objective=2.000e-04
Raw, Flexflow:
end_time=2.657e-04
Fused, Flexflow:
end_time=2.594e-04
da_config: SP=(1,8),Sg=(2048,2048),S=(16384,16384),Nh=(1,1),bs=1,D=128,causal=True,hierarchy=None
Raw, ILP:
LP solve time: 300.1434350013733 s
objective=3.921e-04
Fused, ILP:
LP solve time: 6.112692356109619 s
objective=2.754e-04
Raw, Flexflow:
end_time=4.012e-04
Fused, Flexflow:
end_time=3.161e-04
da_config: SP=(1,8),Sg=(4096,4096),S=(32768,32768),Nh=(1,1),bs=1,D=128,causal=True,hierarchy=None
Raw, ILP:
LP solve time: 39.54547739028931 s
objective=7.352e-04
Fused, ILP:
LP solve time: 1.7665810585021973 s
objective=4.360e-04
Raw, Flexflow:
end_time=7.352e-04
Fused, Flexflow:
end_time=4.863e-04
da_config: SP=(1,8),Sg=(8192,8192),S=(65536,65536),Nh=(1,1),bs=1,D=128,causal=True,hierarchy=None
Raw, ILP:
LP solve time: 30.4703049659729 s
objective=1.437e-03
Fused, ILP:
LP solve time: 0.8764219284057617 s
objective=1.250e-03
Raw, Flexflow:
end_time=1.437e-03
Fused, Flexflow:
end_time=1.250e-03
da_config: SP=(1,8),Sg=(16384,16384),S=(131072,131072),Nh=(1,1),bs=1,D=128,causal=True,hierarchy=None
Raw, ILP:
LP solve time: 9.967458963394165 s
objective=4.885e-03
Fused, ILP:
LP solve time: 0.48752617835998535 s
objective=4.765e-03
Raw, Flexflow:
end_time=4.885e-03
Fused, Flexflow:
end_time=4.765e-03
da_config: SP=(1,8),Sg=(32768,32768),S=(262144,262144),Nh=(1,1),bs=1,D=128,causal=True,hierarchy=None
Raw, ILP:
LP solve time: 26.974249362945557 s
objective=1.502e-02
Fused, ILP:
LP solve time: 1.987055778503418 s
objective=1.459e-02
Raw, Flexflow:
end_time=1.502e-02
Fused, Flexflow:
end_time=1.459e-02
da_config: SP=(1,8),Sg=(65536,65536),S=(524288,524288),Nh=(1,1),bs=1,D=128,causal=True,hierarchy=None
Raw, ILP:
LP solve time: 29.91401481628418 s
objective=4.777e-02
Fused, ILP:
LP solve time: 0.4371225833892822 s
objective=4.703e-02
Raw, Flexflow:
end_time=4.777e-02
Fused, Flexflow:
end_time=4.703e-02
da_config: SP=(1,8),Sg=(256,256),S=(2048,2048),Nh=(32,32),bs=1,D=128,causal=True,hierarchy=None
Raw, ILP:
LP solve time: 43.56305122375488 s
objective=1.806e-04
Fused, ILP:
LP solve time: 27.880866050720215 s
objective=2.077e-04
Raw, Flexflow:
end_time=2.712e-04
Fused, Flexflow:
end_time=2.792e-04
da_config: SP=(1,8),Sg=(512,512),S=(4096,4096),Nh=(32,32),bs=1,D=128,causal=True,hierarchy=None
Raw, ILP:
LP solve time: 131.74819445610046 s
objective=2.807e-04
Fused, ILP:
LP solve time: 3.7317934036254883 s
objective=3.341e-04
Raw, Flexflow:
end_time=4.238e-04
Fused, Flexflow:
end_time=4.838e-04
da_config: SP=(1,8),Sg=(1024,1024),S=(8192,8192),Nh=(32,32),bs=1,D=128,causal=True,hierarchy=None
Raw, ILP:
LP solve time: 15.012830972671509 s
objective=6.145e-04
Fused, ILP:
LP solve time: 0.7511630058288574 s
objective=6.687e-04
Raw, Flexflow:
end_time=7.910e-04
Fused, Flexflow:
end_time=8.803e-04
da_config: SP=(1,8),Sg=(2048,2048),S=(16384,16384),Nh=(32,32),bs=1,D=128,causal=True,hierarchy=None
Raw, ILP:
LP solve time: 28.26559543609619 s
objective=1.720e-03
Fused, ILP:
LP solve time: 1.127267599105835 s
objective=1.862e-03
Raw, Flexflow:
end_time=1.786e-03
Fused, Flexflow:
end_time=2.040e-03
da_config: SP=(1,8),Sg=(4096,4096),S=(32768,32768),Nh=(32,32),bs=1,D=128,causal=True,hierarchy=None
Raw, ILP:
LP solve time: 54.75301933288574 s
objective=6.076e-03
Fused, ILP:
LP solve time: 0.31722497940063477 s
objective=5.924e-03
Raw, Flexflow:
end_time=6.076e-03
Fused, Flexflow:
end_time=6.231e-03
da_config: SP=(1,8),Sg=(8192,8192),S=(65536,65536),Nh=(32,32),bs=1,D=128,causal=True,hierarchy=None
Raw, ILP:
LP solve time: 166.08475947380066 s
objective=2.232e-02
Fused, ILP:
LP solve time: 0.5462026596069336 s
objective=2.249e-02
Raw, Flexflow:
end_time=2.232e-02
Fused, Flexflow:
end_time=2.249e-02
da_config: SP=(1,8),Sg=(16384,16384),S=(131072,131072),Nh=(32,32),bs=1,D=128,causal=True,hierarchy=None
Raw, ILP:
LP solve time: 21.470571994781494 s
objective=8.731e-02
Fused, ILP:
LP solve time: 0.16730713844299316 s
objective=8.735e-02
Raw, Flexflow:
end_time=8.731e-02
Fused, Flexflow:
end_time=8.735e-02
da_config: SP=(1,8),Sg=(32768,32768),S=(262144,262144),Nh=(32,32),bs=1,D=128,causal=True,hierarchy=None
Raw, ILP:
LP solve time: 300.01905703544617 s
objective=3.439e-01
Fused, ILP:
LP solve time: 0.15090203285217285 s
objective=3.445e-01
Raw, Flexflow:
end_time=3.439e-01
Fused, Flexflow:
end_time=3.445e-01
da_config: SP=(1,8),Sg=(65536,65536),S=(524288,524288),Nh=(32,32),bs=1,D=128,causal=True,hierarchy=None
Raw, ILP:
LP solve time: 35.9592342376709 s
objective=1.367e+00
Fused, ILP:
LP solve time: 0.607398271560669 s
objective=1.368e+00
Raw, Flexflow:
end_time=1.367e+00
Fused, Flexflow:
end_time=1.368e+00


exp_config: fob=1,plan_type=automatic,hierarchy=None,transform_mode=greedy,plan_path=None
da_config: SP=(1,8),Sg=(256,256),S=(2048,2048),Nh=(1,1),bs=1,D=128,causal=True,hierarchy=None
Raw, ILP:
LP solve time: 231.85668683052063 s
objective=2.465e-04
Fused, ILP:
LP solve time: 266.48005294799805 s
objective=2.015e-04
Raw, Flexflow:
end_time=3.230e-04
Fused, Flexflow:
end_time=2.996e-04
da_config: SP=(1,8),Sg=(512,512),S=(4096,4096),Nh=(1,1),bs=1,D=128,causal=True,hierarchy=None
Raw, ILP:
LP solve time: 52.47749185562134 s
objective=3.540e-04
Fused, ILP:
LP solve time: 3.0048274993896484 s
objective=2.670e-04
Raw, Flexflow:
end_time=3.756e-04
Fused, Flexflow:
end_time=3.322e-04
da_config: SP=(1,8),Sg=(1024,1024),S=(8192,8192),Nh=(1,1),bs=1,D=128,causal=True,hierarchy=None
Raw, ILP:
LP solve time: 79.28048038482666 s
objective=5.766e-04
Fused, ILP:
LP solve time: 12.797886848449707 s
objective=4.466e-04
Raw, Flexflow:
end_time=5.977e-04
Fused, Flexflow:
end_time=4.897e-04
da_config: SP=(1,8),Sg=(2048,2048),S=(16384,16384),Nh=(1,1),bs=1,D=128,causal=True,hierarchy=None
Raw, ILP:
LP solve time: 300.33194303512573 s
objective=1.036e-03
Fused, ILP:
LP solve time: 35.297874212265015 s
objective=8.125e-04
Raw, Flexflow:
end_time=1.055e-03
Fused, Flexflow:
end_time=8.552e-04
da_config: SP=(1,8),Sg=(4096,4096),S=(32768,32768),Nh=(1,1),bs=1,D=128,causal=True,hierarchy=None
Raw, ILP:
LP solve time: 109.75145602226257 s
objective=1.934e-03
Fused, ILP:
LP solve time: 36.580854654312134 s
objective=1.535e-03
Raw, Flexflow:
end_time=1.953e-03
Fused, Flexflow:
end_time=1.585e-03
da_config: SP=(1,8),Sg=(8192,8192),S=(65536,65536),Nh=(1,1),bs=1,D=128,causal=True,hierarchy=None
Raw, ILP:
LP solve time: 300.05068135261536 s
objective=3.757e-03
Fused, ILP:
LP solve time: 2.212451219558716 s
objective=3.736e-03
Raw, Flexflow:
end_time=3.794e-03
Fused, Flexflow:
end_time=3.763e-03
da_config: SP=(1,8),Sg=(16384,16384),S=(131072,131072),Nh=(1,1),bs=1,D=128,causal=True,hierarchy=None
Raw, ILP:
LP solve time: 300.21550273895264 s
objective=1.305e-02
Fused, ILP:
LP solve time: 79.26781249046326 s
objective=1.019e-02
Raw, Flexflow:
end_time=1.309e-02
Fused, Flexflow:
end_time=1.041e-02
da_config: SP=(1,8),Sg=(32768,32768),S=(262144,262144),Nh=(1,1),bs=1,D=128,causal=True,hierarchy=None
Raw, ILP:
LP solve time: 300.1808547973633 s
objective=3.826e-02
Fused, ILP:
LP solve time: 2.204293727874756 s
objective=3.538e-02
Raw, Flexflow:
end_time=3.827e-02
Fused, Flexflow:
end_time=3.564e-02
da_config: SP=(1,8),Sg=(65536,65536),S=(524288,524288),Nh=(1,1),bs=1,D=128,causal=True,hierarchy=None
Raw, ILP:
LP solve time: 300.0725209712982 s
objective=1.283e-01
Fused, ILP:
LP solve time: 0.7444190979003906 s
objective=1.285e-01
Raw, Flexflow:
end_time=1.284e-01
Fused, Flexflow:
end_time=1.290e-01
da_config: SP=(1,8),Sg=(256,256),S=(2048,2048),Nh=(32,32),bs=1,D=128,causal=True,hierarchy=None
Raw, ILP:
LP solve time: 300.14689803123474 s
objective=3.183e-04
Fused, ILP:
LP solve time: 300.3366458415985 s
objective=3.618e-04
Raw, Flexflow:
end_time=4.872e-04
Fused, Flexflow:
end_time=5.589e-04
da_config: SP=(1,8),Sg=(512,512),S=(4096,4096),Nh=(32,32),bs=1,D=128,causal=True,hierarchy=None
Raw, ILP:
LP solve time: 300.47540736198425 s
objective=6.967e-04
Fused, ILP:
LP solve time: 14.57365083694458 s
objective=6.913e-04
Raw, Flexflow:
end_time=8.177e-04
Fused, Flexflow:
end_time=9.792e-04
da_config: SP=(1,8),Sg=(1024,1024),S=(8192,8192),Nh=(32,32),bs=1,D=128,causal=True,hierarchy=None
Raw, ILP:
LP solve time: 300.30393648147583 s
objective=1.657e-03
Fused, ILP:
LP solve time: 107.52158045768738 s
objective=1.600e-03
Raw, Flexflow:
end_time=1.852e-03
Fused, Flexflow:
end_time=1.791e-03
da_config: SP=(1,8),Sg=(2048,2048),S=(16384,16384),Nh=(32,32),bs=1,D=128,causal=True,hierarchy=None
Raw, ILP:
LP solve time: 301.20767402648926 s
objective=5.011e-03
Fused, ILP:
LP solve time: 2.359396457672119 s
objective=4.822e-03
Raw, Flexflow:
end_time=5.026e-03
Fused, Flexflow:
end_time=5.329e-03
da_config: SP=(1,8),Sg=(4096,4096),S=(32768,32768),Nh=(32,32),bs=1,D=128,causal=True,hierarchy=None
Raw, ILP:
LP solve time: 300.08626794815063 s
objective=1.772e-02
Fused, ILP:
LP solve time: 2.2843010425567627 s
objective=1.679e-02
Raw, Flexflow:
end_time=1.775e-02
Fused, Flexflow:
end_time=1.758e-02
da_config: SP=(1,8),Sg=(8192,8192),S=(65536,65536),Nh=(32,32),bs=1,D=128,causal=True,hierarchy=None
Raw, ILP:
LP solve time: 143.43563985824585 s
objective=6.364e-02
Fused, ILP:
LP solve time: 0.8367314338684082 s
objective=6.369e-02
Raw, Flexflow:
end_time=6.427e-02
Fused, Flexflow:
end_time=6.603e-02
da_config: SP=(1,8),Sg=(16384,16384),S=(131072,131072),Nh=(32,32),bs=1,D=128,causal=True,hierarchy=None
Raw, ILP:
LP solve time: 300.42505145072937 s
objective=2.493e-01
Fused, ILP:
LP solve time: 1.7466201782226562 s
objective=2.476e-01
Raw, Flexflow:
end_time=2.494e-01
Fused, Flexflow:
end_time=2.502e-01
da_config: SP=(1,8),Sg=(32768,32768),S=(262144,262144),Nh=(32,32),bs=1,D=128,causal=True,hierarchy=None
Raw, ILP:
LP solve time: 158.13611555099487 s
objective=9.784e-01
Fused, ILP:
LP solve time: 1.29779052734375 s
objective=9.792e-01
Raw, Flexflow:
end_time=9.807e-01
Fused, Flexflow:
end_time=9.852e-01
da_config: SP=(1,8),Sg=(65536,65536),S=(524288,524288),Nh=(32,32),bs=1,D=128,causal=True,hierarchy=None
Raw, ILP:
LP solve time: 300.1841311454773 s
objective=3.897e+00
Fused, ILP:
LP solve time: 1.362126350402832 s
objective=3.897e+00
Raw, Flexflow:
end_time=3.897e+00
Fused, Flexflow:
end_time=3.909e+00
+ set +x
