+ srun -p arch -N 1 --ntasks-per-node=1 --mem 256G -K python search_algo/main.py
srun: job 16950 queued and waiting for resources
srun: job 16950 has been allocated resources
exp_config: fob=0,plan_type=automatic,hierarchy=0,transform_mode=greedy
da_config: SP=(2,8),Sg=(256,256),S=(4096,4096),Nh=(1,1),bs=1,D=128,causal=True,hierarchy=0
split_degrees: [2, 2, 1, 1], causal: [2, 2, 1, 1]
Raw, ILP:
LP solve time: 0.011921882629394531 s
objective=1.934e-04
Fused, ILP:
No Transformations Selected !!!
Raw, Flexflow:
end_time=1.934e-04
Fused, Flexflow:
No Transformations Selected !!!
da_config: SP=(2,8),Sg=(512,512),S=(8192,8192),Nh=(1,1),bs=1,D=128,causal=True,hierarchy=0
split_degrees: [2, 2, 1, 1], causal: [2, 2, 1, 1]
Raw, ILP:
LP solve time: 0.01249241828918457 s
objective=1.784e-04
Fused, ILP:
No Transformations Selected !!!
Raw, Flexflow:
end_time=1.784e-04
Fused, Flexflow:
No Transformations Selected !!!
da_config: SP=(2,8),Sg=(1024,1024),S=(16384,16384),Nh=(1,1),bs=1,D=128,causal=True,hierarchy=0
split_degrees: [2, 2, 1, 1], causal: [2, 2, 1, 1]
Raw, ILP:
LP solve time: 0.012241125106811523 s
objective=2.378e-04
Fused, ILP:
No Transformations Selected !!!
Raw, Flexflow:
end_time=2.378e-04
Fused, Flexflow:
No Transformations Selected !!!
da_config: SP=(2,8),Sg=(2048,2048),S=(32768,32768),Nh=(1,1),bs=1,D=128,causal=True,hierarchy=0
split_degrees: [2, 2, 1, 1], causal: [2, 2, 1, 1]
Raw, ILP:
LP solve time: 0.012844085693359375 s
objective=4.722e-04
Fused, ILP:
No Transformations Selected !!!
Raw, Flexflow:
end_time=4.722e-04
Fused, Flexflow:
No Transformations Selected !!!
da_config: SP=(2,8),Sg=(4096,4096),S=(65536,65536),Nh=(1,1),bs=1,D=128,causal=True,hierarchy=0
split_degrees: [2, 2, 1, 1], causal: [2, 2, 1, 1]
Raw, ILP:
LP solve time: 0.011917591094970703 s
objective=1.140e-03
Fused, ILP:
No Transformations Selected !!!
Raw, Flexflow:
end_time=1.140e-03
Fused, Flexflow:
No Transformations Selected !!!
da_config: SP=(2,8),Sg=(8192,8192),S=(131072,131072),Nh=(1,1),bs=1,D=128,causal=True,hierarchy=0
split_degrees: [2, 2, 1, 1], causal: [2, 2, 1, 1]
Raw, ILP:
LP solve time: 0.013069629669189453 s
objective=3.120e-03
Fused, ILP:
No Transformations Selected !!!
Raw, Flexflow:
end_time=3.120e-03
Fused, Flexflow:
No Transformations Selected !!!
da_config: SP=(2,8),Sg=(16384,16384),S=(262144,262144),Nh=(1,1),bs=1,D=128,causal=True,hierarchy=0
split_degrees: [2, 2, 1, 1], causal: [2, 2, 1, 1]
Raw, ILP:
LP solve time: 0.013149499893188477 s
objective=1.087e-02
Fused, ILP:
No Transformations Selected !!!
Raw, Flexflow:
end_time=1.087e-02
Fused, Flexflow:
No Transformations Selected !!!
da_config: SP=(2,8),Sg=(256,256),S=(4096,4096),Nh=(32,32),bs=1,D=128,causal=True,hierarchy=0
split_degrees: [2, 2, 1, 1], causal: [2, 2, 1, 1]
Raw, ILP:
LP solve time: 0.011177301406860352 s
objective=6.700e-04
Fused, ILP:
No Transformations Selected !!!
Raw, Flexflow:
end_time=6.700e-04
Fused, Flexflow:
No Transformations Selected !!!
da_config: SP=(2,8),Sg=(512,512),S=(8192,8192),Nh=(32,32),bs=1,D=128,causal=True,hierarchy=0
split_degrees: [2, 2, 1, 1], causal: [2, 2, 1, 1]
Raw, ILP:
LP solve time: 0.011324405670166016 s
objective=1.275e-03
Fused, ILP:
No Transformations Selected !!!
Raw, Flexflow:
end_time=1.275e-03
Fused, Flexflow:
No Transformations Selected !!!
da_config: SP=(2,8),Sg=(1024,1024),S=(16384,16384),Nh=(32,32),bs=1,D=128,causal=True,hierarchy=0
split_degrees: [2, 2, 1, 1], causal: [2, 2, 1, 1]
Raw, ILP:
LP solve time: 0.010675668716430664 s
objective=2.601e-03
Fused, ILP:
No Transformations Selected !!!
Raw, Flexflow:
end_time=2.601e-03
Fused, Flexflow:
No Transformations Selected !!!
da_config: SP=(2,8),Sg=(2048,2048),S=(32768,32768),Nh=(32,32),bs=1,D=128,causal=True,hierarchy=0
split_degrees: [2, 2, 1, 1], causal: [2, 2, 1, 1]
Raw, ILP:
LP solve time: 0.013387918472290039 s
objective=6.646e-03
Fused, ILP:
No Transformations Selected !!!
Raw, Flexflow:
end_time=6.646e-03
Fused, Flexflow:
No Transformations Selected !!!
da_config: SP=(2,8),Sg=(4096,4096),S=(65536,65536),Nh=(32,32),bs=1,D=128,causal=True,hierarchy=0
split_degrees: [2, 2, 1, 1], causal: [2, 2, 1, 1]
Raw, ILP:
LP solve time: 0.011780977249145508 s
objective=2.130e-02
Fused, ILP:
No Transformations Selected !!!
Raw, Flexflow:
end_time=2.130e-02
Fused, Flexflow:
No Transformations Selected !!!
da_config: SP=(2,8),Sg=(8192,8192),S=(131072,131072),Nh=(32,32),bs=1,D=128,causal=True,hierarchy=0
split_degrees: [2, 2, 1, 1], causal: [2, 2, 1, 1]
Raw, ILP:
LP solve time: 0.012458324432373047 s
objective=8.556e-02
Fused, ILP:
No Transformations Selected !!!
Raw, Flexflow:
end_time=8.556e-02
Fused, Flexflow:
No Transformations Selected !!!
da_config: SP=(2,8),Sg=(16384,16384),S=(262144,262144),Nh=(32,32),bs=1,D=128,causal=True,hierarchy=0
split_degrees: [2, 2, 1, 1], causal: [2, 2, 1, 1]
Raw, ILP:
LP solve time: 0.011818647384643555 s
objective=3.282e-01
Fused, ILP:
No Transformations Selected !!!
Raw, Flexflow:
end_time=3.282e-01
Fused, Flexflow:
No Transformations Selected !!!
+ set +x
